[
    {
        "state":"CA",
        "city":"adelanto",
        "Average Price":330053.21,
        "Average Income":36944.0,
        "state_name":"California",
        "lat":34.5814,
        "lng":-117.4397,
        "Price to Income Ratio":8.933878573,
        "Income Range":"20000-50000"
    },
    {
        "state":"CA",
        "city":"agoura hills",
        "Average Price":1457051.4199999999,
        "Average Income":182475.0,
        "state_name":"California",
        "lat":34.151,
        "lng":-118.7609,
        "Price to Income Ratio":7.9849372243,
        "Income Range":"170000+"
    },
    {
        "state":"CA",
        "city":"agua dulce",
        "Average Price":1149721.7,
        "Average Income":91975.0,
        "state_name":"California",
        "lat":34.5044,
        "lng":-118.316,
        "Price to Income Ratio":12.5003718402,
        "Income Range":"80000-110000"
    },
    {
        "state":"CA",
        "city":"aguanga",
        "Average Price":298430.58,
        "Average Income":64425.0,
        "state_name":"California",
        "lat":33.4522,
        "lng":-116.8555,
        "Price to Income Ratio":4.6322169965,
        "Income Range":"50000-80000"
    },
    {
        "state":"CA",
        "city":"alameda",
        "Average Price":1121272.6100000001,
        "Average Income":89726.38,
        "state_name":"California",
        "lat":37.7668,
        "lng":-122.267,
        "Price to Income Ratio":12.4965769264,
        "Income Range":"80000-110000"
    },
    {
        "state":"CA",
        "city":"albany",
        "Average Price":1018970.86,
        "Average Income":98633.0,
        "state_name":"California",
        "lat":37.8897,
        "lng":-122.3018,
        "Price to Income Ratio":10.3309324465,
        "Income Range":"80000-110000"
    },
    {
        "state":"CA",
        "city":"alhambra",
        "Average Price":1021538.51,
        "Average Income":75486.22,
        "state_name":"California",
        "lat":34.084,
        "lng":-118.1355,
        "Price to Income Ratio":13.5327813474,
        "Income Range":"50000-80000"
    },
    {
        "state":"CA",
        "city":"aliso viejo",
        "Average Price":946978.4,
        "Average Income":90167.0,
        "state_name":"California",
        "lat":33.5792,
        "lng":-117.7289,
        "Price to Income Ratio":10.5024942606,
        "Income Range":"80000-110000"
    },
    {
        "state":"CA",
        "city":"alpine",
        "Average Price":1026568.8199999999,
        "Average Income":91662.0,
        "state_name":"California",
        "lat":32.8439,
        "lng":-116.7585,
        "Price to Income Ratio":11.1995027383,
        "Income Range":"80000-110000"
    },
    {
        "state":"CA",
        "city":"alta",
        "Average Price":373254.45,
        "Average Income":64090.67,
        "state_name":"California",
        "lat":39.2138,
        "lng":-120.8033,
        "Price to Income Ratio":5.8238500237,
        "Income Range":"50000-80000"
    },
    {
        "state":"CA",
        "city":"altadena",
        "Average Price":1349019.4199999999,
        "Average Income":88514.0,
        "state_name":"California",
        "lat":34.1927,
        "lng":-118.1346,
        "Price to Income Ratio":15.2407463226,
        "Income Range":"80000-110000"
    },
    {
        "state":"CA",
        "city":"anaheim",
        "Average Price":950574.16,
        "Average Income":72411.0,
        "state_name":"California",
        "lat":33.839,
        "lng":-117.8574,
        "Price to Income Ratio":13.127482841,
        "Income Range":"50000-80000"
    },
    {
        "state":"CA",
        "city":"anderson",
        "Average Price":542865.38,
        "Average Income":56644.0,
        "state_name":"California",
        "lat":40.4497,
        "lng":-122.295,
        "Price to Income Ratio":9.5838108184,
        "Income Range":"50000-80000"
    },
    {
        "state":"CA",
        "city":"angwin",
        "Average Price":3076062.4399999999,
        "Average Income":79252.0,
        "state_name":"California",
        "lat":38.5776,
        "lng":-122.4513,
        "Price to Income Ratio":38.8136884874,
        "Income Range":"50000-80000"
    },
    {
        "state":"CA",
        "city":"antelope",
        "Average Price":558261.04,
        "Average Income":71078.0,
        "state_name":"California",
        "lat":38.7153,
        "lng":-121.361,
        "Price to Income Ratio":7.8542029883,
        "Income Range":"50000-80000"
    },
    {
        "state":"CA",
        "city":"antioch",
        "Average Price":688440.04,
        "Average Income":60612.5,
        "state_name":"California",
        "lat":37.9787,
        "lng":-121.796,
        "Price to Income Ratio":11.3580538668,
        "Income Range":"50000-80000"
    },
    {
        "state":"CA",
        "city":"anza",
        "Average Price":312691.72,
        "Average Income":67770.0,
        "state_name":"California",
        "lat":33.5678,
        "lng":-116.6966,
        "Price to Income Ratio":4.6140138704,
        "Income Range":"50000-80000"
    },
    {
        "state":"CA",
        "city":"apple valley",
        "Average Price":385710.7,
        "Average Income":62031.4,
        "state_name":"California",
        "lat":34.5352,
        "lng":-117.2109,
        "Price to Income Ratio":6.2179912109,
        "Income Range":"50000-80000"
    },
    {
        "state":"CA",
        "city":"aptos",
        "Average Price":2524826.1299999999,
        "Average Income":72422.4,
        "state_name":"California",
        "lat":36.9912,
        "lng":-121.8934,
        "Price to Income Ratio":34.8625028997,
        "Income Range":"50000-80000"
    },
    {
        "state":"CA",
        "city":"arcadia",
        "Average Price":2784670.3999999999,
        "Average Income":82843.6,
        "state_name":"California",
        "lat":34.1342,
        "lng":-118.0373,
        "Price to Income Ratio":33.613585117,
        "Income Range":"80000-110000"
    },
    {
        "state":"CA",
        "city":"arcata",
        "Average Price":697800.0,
        "Average Income":40289.0,
        "state_name":"California",
        "lat":40.8615,
        "lng":-124.0758,
        "Price to Income Ratio":17.3198639827,
        "Income Range":"20000-50000"
    },
    {
        "state":"CA",
        "city":"arroyo grande",
        "Average Price":1172564.77,
        "Average Income":76230.67,
        "state_name":"California",
        "lat":35.1241,
        "lng":-120.5845,
        "Price to Income Ratio":15.3817980348,
        "Income Range":"50000-80000"
    },
    {
        "state":"CA",
        "city":"artesia",
        "Average Price":1174378.3300000001,
        "Average Income":76899.0,
        "state_name":"California",
        "lat":33.8676,
        "lng":-118.0805,
        "Price to Income Ratio":15.2716983316,
        "Income Range":"50000-80000"
    },
    {
        "state":"CA",
        "city":"arvin",
        "Average Price":702318.8100000001,
        "Average Income":53026.0,
        "state_name":"California",
        "lat":35.1944,
        "lng":-118.8306,
        "Price to Income Ratio":13.2448008524,
        "Income Range":"50000-80000"
    },
    {
        "state":"CA",
        "city":"atascadero",
        "Average Price":812822.76,
        "Average Income":62049.0,
        "state_name":"California",
        "lat":35.4827,
        "lng":-120.6858,
        "Price to Income Ratio":13.0996915341,
        "Income Range":"50000-80000"
    },
    {
        "state":"CA",
        "city":"atherton",
        "Average Price":20600160.4400000013,
        "Average Income":149965.0,
        "state_name":"California",
        "lat":37.454,
        "lng":-122.2031,
        "Price to Income Ratio":137.3664551062,
        "Income Range":"170000+"
    },
    {
        "state":"CA",
        "city":"atwater",
        "Average Price":550539.04,
        "Average Income":63003.5,
        "state_name":"California",
        "lat":37.3529,
        "lng":-120.5959,
        "Price to Income Ratio":8.7382294634,
        "Income Range":"50000-80000"
    },
    {
        "state":"CA",
        "city":"auburn",
        "Average Price":1034415.13,
        "Average Income":89314.67,
        "state_name":"California",
        "lat":38.895,
        "lng":-121.0777,
        "Price to Income Ratio":11.5816934665,
        "Income Range":"80000-110000"
    },
    {
        "state":"CA",
        "city":"avalon",
        "Average Price":1569707.1399999999,
        "Average Income":76075.0,
        "state_name":"California",
        "lat":33.3342,
        "lng":-118.3315,
        "Price to Income Ratio":20.6336791324,
        "Income Range":"50000-80000"
    },
    {
        "state":"CA",
        "city":"avenal",
        "Average Price":267775.93,
        "Average Income":0.0,
        "state_name":"California",
        "lat":36.0311,
        "lng":-120.1162,
        "Price to Income Ratio":null,
        "Income Range":null
    },
    {
        "state":"CA",
        "city":"avery",
        "Average Price":61316.67,
        "Average Income":95870.67,
        "state_name":"California",
        "lat":38.1967,
        "lng":-120.3698,
        "Price to Income Ratio":0.6395769426,
        "Income Range":"80000-110000"
    },
    {
        "state":"CA",
        "city":"azusa",
        "Average Price":964243.71,
        "Average Income":62324.4,
        "state_name":"California",
        "lat":34.1386,
        "lng":-117.9124,
        "Price to Income Ratio":15.4713677147,
        "Income Range":"50000-80000"
    },
    {
        "state":"CA",
        "city":"bakersfield",
        "Average Price":445573.63,
        "Average Income":59350.87,
        "state_name":"California",
        "lat":35.3529,
        "lng":-119.0359,
        "Price to Income Ratio":7.5074490062,
        "Income Range":"50000-80000"
    },
    {
        "state":"CA",
        "city":"baldwin park",
        "Average Price":833294.88,
        "Average Income":61803.67,
        "state_name":"California",
        "lat":34.0829,
        "lng":-117.9722,
        "Price to Income Ratio":13.4829352367,
        "Income Range":"50000-80000"
    },
    {
        "state":"CA",
        "city":"banning",
        "Average Price":376601.95,
        "Average Income":28743.0,
        "state_name":"California",
        "lat":33.946,
        "lng":-116.8992,
        "Price to Income Ratio":13.1023884076,
        "Income Range":"20000-50000"
    },
    {
        "state":"CA",
        "city":"barstow",
        "Average Price":253672.47,
        "Average Income":50790.33,
        "state_name":"California",
        "lat":34.8661,
        "lng":-117.0471,
        "Price to Income Ratio":4.9945032844,
        "Income Range":"50000-80000"
    },
    {
        "state":"CA",
        "city":"bay point",
        "Average Price":535143.53,
        "Average Income":78622.5,
        "state_name":"California",
        "lat":38.0329,
        "lng":-121.9615,
        "Price to Income Ratio":6.8064934338,
        "Income Range":"50000-80000"
    },
    {
        "state":"CA",
        "city":"beaumont",
        "Average Price":559501.2,
        "Average Income":53361.25,
        "state_name":"California",
        "lat":33.9076,
        "lng":-116.9766,
        "Price to Income Ratio":10.4851591745,
        "Income Range":"50000-80000"
    },
    {
        "state":"CA",
        "city":"bell",
        "Average Price":1635739.8999999999,
        "Average Income":47286.0,
        "state_name":"California",
        "lat":33.9801,
        "lng":-118.1798,
        "Price to Income Ratio":34.592477689,
        "Income Range":"20000-50000"
    },
    {
        "state":"CA",
        "city":"bell gardens",
        "Average Price":1219657.1399999999,
        "Average Income":54055.0,
        "state_name":"California",
        "lat":33.9663,
        "lng":-118.155,
        "Price to Income Ratio":22.5632622329,
        "Income Range":"50000-80000"
    },
    {
        "state":"CA",
        "city":"bella vista",
        "Average Price":458259.67,
        "Average Income":64201.0,
        "state_name":"California",
        "lat":40.6427,
        "lng":-122.246,
        "Price to Income Ratio":7.1378899083,
        "Income Range":"50000-80000"
    },
    {
        "state":"CA",
        "city":"bellflower",
        "Average Price":1182913.77,
        "Average Income":72411.44,
        "state_name":"California",
        "lat":33.888,
        "lng":-118.1271,
        "Price to Income Ratio":16.3360067139,
        "Income Range":"50000-80000"
    },
    {
        "state":"CA",
        "city":"belmont",
        "Average Price":2020015.74,
        "Average Income":86987.0,
        "state_name":"California",
        "lat":37.5154,
        "lng":-122.2953,
        "Price to Income Ratio":23.2220416844,
        "Income Range":"80000-110000"
    },
    {
        "state":"CA",
        "city":"ben lomond",
        "Average Price":660611.11,
        "Average Income":83248.0,
        "state_name":"California",
        "lat":37.0782,
        "lng":-122.0881,
        "Price to Income Ratio":7.9354592303,
        "Income Range":"80000-110000"
    },
    {
        "state":"CA",
        "city":"benicia",
        "Average Price":956827.88,
        "Average Income":89735.67,
        "state_name":"California",
        "lat":38.0725,
        "lng":-122.1526,
        "Price to Income Ratio":10.6627373485,
        "Income Range":"80000-110000"
    },
    {
        "state":"CA",
        "city":"benton",
        "Average Price":238000.0,
        "Average Income":72792.0,
        "state_name":"California",
        "lat":37.8189,
        "lng":-118.4845,
        "Price to Income Ratio":3.2695900648,
        "Income Range":"50000-80000"
    },
    {
        "state":"CA",
        "city":"berkeley",
        "Average Price":1575517.8999999999,
        "Average Income":103222.1,
        "state_name":"California",
        "lat":37.8722,
        "lng":-122.276,
        "Price to Income Ratio":15.2633777069,
        "Income Range":"80000-110000"
    },
    {
        "state":"CA",
        "city":"bermuda dunes",
        "Average Price":925461.54,
        "Average Income":77483.0,
        "state_name":"California",
        "lat":33.7435,
        "lng":-116.2874,
        "Price to Income Ratio":11.944059213,
        "Income Range":"50000-80000"
    },
    {
        "state":"CA",
        "city":"berry creek",
        "Average Price":136792.95,
        "Average Income":52817.0,
        "state_name":"California",
        "lat":39.6314,
        "lng":-121.4052,
        "Price to Income Ratio":2.5899416854,
        "Income Range":"50000-80000"
    },
    {
        "state":"CA",
        "city":"beverly hills",
        "Average Price":13174166.5800000001,
        "Average Income":111655.67,
        "state_name":"California",
        "lat":34.0786,
        "lng":-118.4021,
        "Price to Income Ratio":117.9892304618,
        "Income Range":"110000-140000"
    },
    {
        "state":"CA",
        "city":"bieber",
        "Average Price":2581400.0,
        "Average Income":54602.0,
        "state_name":"California",
        "lat":41.1332,
        "lng":-121.1295,
        "Price to Income Ratio":47.2766565327,
        "Income Range":"50000-80000"
    },
    {
        "state":"CA",
        "city":"big bear lake",
        "Average Price":857765.6,
        "Average Income":57474.0,
        "state_name":"California",
        "lat":34.2429,
        "lng":-116.8951,
        "Price to Income Ratio":14.924411038,
        "Income Range":"50000-80000"
    },
    {
        "state":"CA",
        "city":"big bend",
        "Average Price":225000.0,
        "Average Income":29530.0,
        "state_name":"California",
        "lat":41.0108,
        "lng":-121.924,
        "Price to Income Ratio":7.6193701321,
        "Income Range":"20000-50000"
    },
    {
        "state":"CA",
        "city":"bishop",
        "Average Price":388610.85,
        "Average Income":91625.0,
        "state_name":"California",
        "lat":37.3665,
        "lng":-118.3958,
        "Price to Income Ratio":4.2413189632,
        "Income Range":"80000-110000"
    },
    {
        "state":"CA",
        "city":"bloomington",
        "Average Price":596140.14,
        "Average Income":58987.5,
        "state_name":"California",
        "lat":34.0601,
        "lng":-117.4013,
        "Price to Income Ratio":10.106211316,
        "Income Range":"50000-80000"
    },
    {
        "state":"CA",
        "city":"blythe",
        "Average Price":491692.85,
        "Average Income":51489.0,
        "state_name":"California",
        "lat":33.6219,
        "lng":-114.6195,
        "Price to Income Ratio":9.549473674,
        "Income Range":"50000-80000"
    },
    {
        "state":"CA",
        "city":"bodega bay",
        "Average Price":1839285.71,
        "Average Income":32499.0,
        "state_name":"California",
        "lat":38.325,
        "lng":-123.0309,
        "Price to Income Ratio":56.5951478507,
        "Income Range":"20000-50000"
    },
    {
        "state":"CA",
        "city":"bolinas",
        "Average Price":1648000.0,
        "Average Income":50086.5,
        "state_name":"California",
        "lat":37.9177,
        "lng":-122.7095,
        "Price to Income Ratio":32.9030776756,
        "Income Range":"50000-80000"
    },
    {
        "state":"CA",
        "city":"bonita",
        "Average Price":1210394.1200000001,
        "Average Income":101129.0,
        "state_name":"California",
        "lat":32.6651,
        "lng":-117.0296,
        "Price to Income Ratio":11.9688132979,
        "Income Range":"80000-110000"
    },
    {
        "state":"CA",
        "city":"bonsall",
        "Average Price":995516.36,
        "Average Income":74199.0,
        "state_name":"California",
        "lat":33.2764,
        "lng":-117.1941,
        "Price to Income Ratio":13.4168433537,
        "Income Range":"50000-80000"
    },
    {
        "state":"CA",
        "city":"borrego springs",
        "Average Price":167710.2,
        "Average Income":41547.0,
        "state_name":"California",
        "lat":33.241,
        "lng":-116.3571,
        "Price to Income Ratio":4.0366380244,
        "Income Range":"20000-50000"
    },
    {
        "state":"CA",
        "city":"brawley",
        "Average Price":293463.85,
        "Average Income":70244.67,
        "state_name":"California",
        "lat":32.9783,
        "lng":-115.5287,
        "Price to Income Ratio":4.1777383252,
        "Income Range":"50000-80000"
    },
    {
        "state":"CA",
        "city":"brea",
        "Average Price":1071916.9199999999,
        "Average Income":73237.33,
        "state_name":"California",
        "lat":33.9254,
        "lng":-117.8655,
        "Price to Income Ratio":14.6362097034,
        "Income Range":"50000-80000"
    },
    {
        "state":"CA",
        "city":"brentwood",
        "Average Price":982913.4399999999,
        "Average Income":106513.5,
        "state_name":"California",
        "lat":37.9356,
        "lng":-121.719,
        "Price to Income Ratio":9.2280644238,
        "Income Range":"80000-110000"
    },
    {
        "state":"CA",
        "city":"buellton",
        "Average Price":2554350.0,
        "Average Income":80327.0,
        "state_name":"California",
        "lat":34.6152,
        "lng":-120.1943,
        "Price to Income Ratio":31.799394973,
        "Income Range":"80000-110000"
    },
    {
        "state":"CA",
        "city":"buena park",
        "Average Price":939256.28,
        "Average Income":75758.2,
        "state_name":"California",
        "lat":33.8572,
        "lng":-118.0046,
        "Price to Income Ratio":12.3980807358,
        "Income Range":"50000-80000"
    },
    {
        "state":"CA",
        "city":"burbank",
        "Average Price":1454594.5,
        "Average Income":73593.4,
        "state_name":"California",
        "lat":34.1879,
        "lng":-118.3235,
        "Price to Income Ratio":19.7652846587,
        "Income Range":"50000-80000"
    },
    {
        "state":"CA",
        "city":"burlingame",
        "Average Price":2665362.4199999999,
        "Average Income":147438.5,
        "state_name":"California",
        "lat":37.5859,
        "lng":-122.3667,
        "Price to Income Ratio":18.0777912146,
        "Income Range":"170000+"
    },
    {
        "state":"CA",
        "city":"byron",
        "Average Price":3165636.0,
        "Average Income":86367.0,
        "state_name":"California",
        "lat":37.8757,
        "lng":-121.6422,
        "Price to Income Ratio":36.6533050818,
        "Income Range":"80000-110000"
    },
    {
        "state":"CA",
        "city":"calabasas",
        "Average Price":3208543.4399999999,
        "Average Income":151185.0,
        "state_name":"California",
        "lat":34.1375,
        "lng":-118.6689,
        "Price to Income Ratio":21.2226308165,
        "Income Range":"170000+"
    },
    {
        "state":"CA",
        "city":"calexico",
        "Average Price":488227.44,
        "Average Income":55842.5,
        "state_name":"California",
        "lat":32.6849,
        "lng":-115.4944,
        "Price to Income Ratio":8.7429366522,
        "Income Range":"50000-80000"
    },
    {
        "state":"CA",
        "city":"california city",
        "Average Price":133410.91,
        "Average Income":49125.67,
        "state_name":"California",
        "lat":35.1578,
        "lng":-117.8721,
        "Price to Income Ratio":2.7157066764,
        "Income Range":"20000-50000"
    },
    {
        "state":"CA",
        "city":"calimesa",
        "Average Price":395638.54,
        "Average Income":61578.0,
        "state_name":"California",
        "lat":33.9874,
        "lng":-117.0542,
        "Price to Income Ratio":6.4249982136,
        "Income Range":"50000-80000"
    },
    {
        "state":"CA",
        "city":"calistoga",
        "Average Price":3527174.0699999998,
        "Average Income":88175.0,
        "state_name":"California",
        "lat":38.5818,
        "lng":-122.5824,
        "Price to Income Ratio":40.0019741423,
        "Income Range":"80000-110000"
    },
    {
        "state":"CA",
        "city":"camarillo",
        "Average Price":1165039.0800000001,
        "Average Income":92316.0,
        "state_name":"California",
        "lat":34.223,
        "lng":-119.0321,
        "Price to Income Ratio":12.6201208891,
        "Income Range":"80000-110000"
    },
    {
        "state":"CA",
        "city":"cambria",
        "Average Price":1232530.4299999999,
        "Average Income":78162.0,
        "state_name":"California",
        "lat":35.552,
        "lng":-121.0838,
        "Price to Income Ratio":15.7689213429,
        "Income Range":"50000-80000"
    },
    {
        "state":"CA",
        "city":"cameron park",
        "Average Price":728382.4399999999,
        "Average Income":122054.0,
        "state_name":"California",
        "lat":38.6738,
        "lng":-120.9872,
        "Price to Income Ratio":5.967706425,
        "Income Range":"170000+"
    },
    {
        "state":"CA",
        "city":"campbell",
        "Average Price":1728907.8500000001,
        "Average Income":111889.14,
        "state_name":"California",
        "lat":37.2802,
        "lng":-121.9539,
        "Price to Income Ratio":15.4519719251,
        "Income Range":"110000-140000"
    },
    {
        "state":"CA",
        "city":"camptonville",
        "Average Price":285377.78,
        "Average Income":45763.0,
        "state_name":"California",
        "lat":39.4521,
        "lng":-121.0487,
        "Price to Income Ratio":6.2359937067,
        "Income Range":"20000-50000"
    },
    {
        "state":"CA",
        "city":"canby",
        "Average Price":111250.0,
        "Average Income":40613.0,
        "state_name":"California",
        "lat":41.4477,
        "lng":-120.8843,
        "Price to Income Ratio":2.7392706769,
        "Income Range":"20000-50000"
    },
    {
        "state":"CA",
        "city":"capitola",
        "Average Price":1300000.0,
        "Average Income":87396.0,
        "state_name":"California",
        "lat":36.9773,
        "lng":-121.9537,
        "Price to Income Ratio":14.8748226463,
        "Income Range":"80000-110000"
    },
    {
        "state":"CA",
        "city":"carlsbad",
        "Average Price":1614244.8300000001,
        "Average Income":100168.71,
        "state_name":"California",
        "lat":33.1246,
        "lng":-117.2834,
        "Price to Income Ratio":16.1152602444,
        "Income Range":"80000-110000"
    },
    {
        "state":"CA",
        "city":"carmichael",
        "Average Price":665595.3199999999,
        "Average Income":67756.14,
        "state_name":"California",
        "lat":38.6318,
        "lng":-121.3263,
        "Price to Income Ratio":9.8233948982,
        "Income Range":"50000-80000"
    },
    {
        "state":"CA",
        "city":"carpinteria",
        "Average Price":15195411.1099999994,
        "Average Income":88344.0,
        "state_name":"California",
        "lat":34.3962,
        "lng":-119.5118,
        "Price to Income Ratio":172.0027518564,
        "Income Range":"80000-110000"
    },
    {
        "state":"CA",
        "city":"carson",
        "Average Price":704021.03,
        "Average Income":63984.0,
        "state_name":"California",
        "lat":33.8374,
        "lng":-118.2559,
        "Price to Income Ratio":11.0030793636,
        "Income Range":"50000-80000"
    },
    {
        "state":"CA",
        "city":"castaic",
        "Average Price":825167.13,
        "Average Income":64217.0,
        "state_name":"California",
        "lat":34.4818,
        "lng":-118.6316,
        "Price to Income Ratio":12.8496680007,
        "Income Range":"50000-80000"
    },
    {
        "state":"CA",
        "city":"castro valley",
        "Average Price":1393548.47,
        "Average Income":96963.75,
        "state_name":"California",
        "lat":37.7088,
        "lng":-122.0626,
        "Price to Income Ratio":14.3718499955,
        "Income Range":"80000-110000"
    },
    {
        "state":"CA",
        "city":"castroville",
        "Average Price":442544.44,
        "Average Income":63343.0,
        "state_name":"California",
        "lat":36.7649,
        "lng":-121.7534,
        "Price to Income Ratio":6.9864774324,
        "Income Range":"50000-80000"
    },
    {
        "state":"CA",
        "city":"cathedral city",
        "Average Price":400310.64,
        "Average Income":55176.0,
        "state_name":"California",
        "lat":33.8362,
        "lng":-116.4642,
        "Price to Income Ratio":7.2551587647,
        "Income Range":"50000-80000"
    },
    {
        "state":"CA",
        "city":"catheys valley",
        "Average Price":723550.0,
        "Average Income":69566.0,
        "state_name":"California",
        "lat":37.4308,
        "lng":-120.0995,
        "Price to Income Ratio":10.4009142397,
        "Income Range":"50000-80000"
    },
    {
        "state":"CA",
        "city":"cazadero",
        "Average Price":509588.24,
        "Average Income":60396.5,
        "state_name":"California",
        "lat":38.5265,
        "lng":-123.0978,
        "Price to Income Ratio":8.4373803118,
        "Income Range":"50000-80000"
    },
    {
        "state":"CA",
        "city":"ceres",
        "Average Price":587679.6800000001,
        "Average Income":60523.5,
        "state_name":"California",
        "lat":37.5952,
        "lng":-120.962,
        "Price to Income Ratio":9.7099420886,
        "Income Range":"50000-80000"
    },
    {
        "state":"CA",
        "city":"cerritos",
        "Average Price":1132002.02,
        "Average Income":92139.67,
        "state_name":"California",
        "lat":33.8678,
        "lng":-118.0686,
        "Price to Income Ratio":12.2857181928,
        "Income Range":"80000-110000"
    },
    {
        "state":"CA",
        "city":"chester",
        "Average Price":290374.04,
        "Average Income":97160.5,
        "state_name":"California",
        "lat":40.3017,
        "lng":-121.2339,
        "Price to Income Ratio":2.9886017466,
        "Income Range":"80000-110000"
    },
    {
        "state":"CA",
        "city":"chico",
        "Average Price":651668.45,
        "Average Income":79356.4,
        "state_name":"California",
        "lat":39.7578,
        "lng":-121.8161,
        "Price to Income Ratio":8.2119205256,
        "Income Range":"50000-80000"
    },
    {
        "state":"CA",
        "city":"chino",
        "Average Price":778396.4399999999,
        "Average Income":89300.92,
        "state_name":"California",
        "lat":33.9836,
        "lng":-117.6654,
        "Price to Income Ratio":8.7165556637,
        "Income Range":"80000-110000"
    },
    {
        "state":"CA",
        "city":"chino hills",
        "Average Price":1019933.77,
        "Average Income":59836.0,
        "state_name":"California",
        "lat":33.9508,
        "lng":-117.7254,
        "Price to Income Ratio":17.0454871649,
        "Income Range":"50000-80000"
    },
    {
        "state":"CA",
        "city":"chowchilla",
        "Average Price":562144.8199999999,
        "Average Income":44473.67,
        "state_name":"California",
        "lat":37.1095,
        "lng":-120.2349,
        "Price to Income Ratio":12.639946737,
        "Income Range":"20000-50000"
    },
    {
        "state":"CA",
        "city":"chula vista",
        "Average Price":848840.48,
        "Average Income":77633.41,
        "state_name":"California",
        "lat":32.6281,
        "lng":-117.0144,
        "Price to Income Ratio":10.9339584594,
        "Income Range":"50000-80000"
    },
    {
        "state":"CA",
        "city":"citrus heights",
        "Average Price":471937.01,
        "Average Income":55089.75,
        "state_name":"California",
        "lat":38.6948,
        "lng":-121.288,
        "Price to Income Ratio":8.5666936227,
        "Income Range":"50000-80000"
    },
    {
        "state":"CA",
        "city":"claremont",
        "Average Price":1092505.8100000001,
        "Average Income":80489.0,
        "state_name":"California",
        "lat":34.1259,
        "lng":-117.7153,
        "Price to Income Ratio":13.5733554896,
        "Income Range":"80000-110000"
    },
    {
        "state":"CA",
        "city":"clayton",
        "Average Price":1161237.1399999999,
        "Average Income":119428.5,
        "state_name":"California",
        "lat":37.9404,
        "lng":-121.9301,
        "Price to Income Ratio":9.7232833034,
        "Income Range":"170000+"
    },
    {
        "state":"CA",
        "city":"clearlake",
        "Average Price":314843.81,
        "Average Income":41732.0,
        "state_name":"California",
        "lat":38.9589,
        "lng":-122.633,
        "Price to Income Ratio":7.5444217866,
        "Income Range":"20000-50000"
    },
    {
        "state":"CA",
        "city":"clearlake oaks",
        "Average Price":223574.9,
        "Average Income":46508.0,
        "state_name":"California",
        "lat":39.0218,
        "lng":-122.6593,
        "Price to Income Ratio":4.8072353144,
        "Income Range":"20000-50000"
    },
    {
        "state":"CA",
        "city":"cloverdale",
        "Average Price":1358954.3500000001,
        "Average Income":65845.0,
        "state_name":"California",
        "lat":38.7962,
        "lng":-123.0152,
        "Price to Income Ratio":20.6386870681,
        "Income Range":"50000-80000"
    },
    {
        "state":"CA",
        "city":"clovis",
        "Average Price":695693.8,
        "Average Income":68761.0,
        "state_name":"California",
        "lat":36.8278,
        "lng":-119.683,
        "Price to Income Ratio":10.1175637353,
        "Income Range":"50000-80000"
    },
    {
        "state":"CA",
        "city":"coachella",
        "Average Price":986253.83,
        "Average Income":42170.5,
        "state_name":"California",
        "lat":33.6905,
        "lng":-116.143,
        "Price to Income Ratio":23.3872927758,
        "Income Range":"20000-50000"
    },
    {
        "state":"CA",
        "city":"coalinga",
        "Average Price":562206.2,
        "Average Income":95126.0,
        "state_name":"California",
        "lat":36.142,
        "lng":-120.3242,
        "Price to Income Ratio":5.9101213128,
        "Income Range":"80000-110000"
    },
    {
        "state":"CA",
        "city":"colfax",
        "Average Price":605460.3100000001,
        "Average Income":62241.0,
        "state_name":"California",
        "lat":39.0938,
        "lng":-120.9532,
        "Price to Income Ratio":9.7276764512,
        "Income Range":"50000-80000"
    },
    {
        "state":"CA",
        "city":"colma",
        "Average Price":1626500.0,
        "Average Income":86745.5,
        "state_name":"California",
        "lat":37.6767,
        "lng":-122.4528,
        "Price to Income Ratio":18.7502521745,
        "Income Range":"80000-110000"
    },
    {
        "state":"CA",
        "city":"colton",
        "Average Price":481868.24,
        "Average Income":46271.2,
        "state_name":"California",
        "lat":34.0538,
        "lng":-117.3255,
        "Price to Income Ratio":10.4139992047,
        "Income Range":"20000-50000"
    },
    {
        "state":"CA",
        "city":"compton",
        "Average Price":618570.45,
        "Average Income":52853.5,
        "state_name":"California",
        "lat":33.893,
        "lng":-118.2274,
        "Price to Income Ratio":11.7034907811,
        "Income Range":"50000-80000"
    },
    {
        "state":"CA",
        "city":"concord",
        "Average Price":763175.59,
        "Average Income":88914.77,
        "state_name":"California",
        "lat":37.9722,
        "lng":-122.0016,
        "Price to Income Ratio":8.5832262739,
        "Income Range":"80000-110000"
    },
    {
        "state":"CA",
        "city":"corcoran",
        "Average Price":209351.8,
        "Average Income":48378.0,
        "state_name":"California",
        "lat":36.0841,
        "lng":-119.5613,
        "Price to Income Ratio":4.3274174211,
        "Income Range":"20000-50000"
    },
    {
        "state":"CA",
        "city":"corning",
        "Average Price":244107.07,
        "Average Income":42098.5,
        "state_name":"California",
        "lat":39.9283,
        "lng":-122.1819,
        "Price to Income Ratio":5.7984742924,
        "Income Range":"20000-50000"
    },
    {
        "state":"CA",
        "city":"corona",
        "Average Price":867840.3100000001,
        "Average Income":86253.71,
        "state_name":"California",
        "lat":33.8616,
        "lng":-117.5649,
        "Price to Income Ratio":10.0614838481,
        "Income Range":"80000-110000"
    },
    {
        "state":"CA",
        "city":"coronado",
        "Average Price":5265948.2599999998,
        "Average Income":109138.0,
        "state_name":"California",
        "lat":32.6649,
        "lng":-117.1604,
        "Price to Income Ratio":48.2503643094,
        "Income Range":"80000-110000"
    },
    {
        "state":"CA",
        "city":"corte madera",
        "Average Price":1771615.3799999999,
        "Average Income":153399.0,
        "state_name":"California",
        "lat":37.9238,
        "lng":-122.5128,
        "Price to Income Ratio":11.5490673342,
        "Income Range":"170000+"
    },
    {
        "state":"CA",
        "city":"costa mesa",
        "Average Price":1404238.3300000001,
        "Average Income":109889.73,
        "state_name":"California",
        "lat":33.6667,
        "lng":-117.9135,
        "Price to Income Ratio":12.7786129787,
        "Income Range":"80000-110000"
    },
    {
        "state":"CA",
        "city":"cotati",
        "Average Price":1045421.4300000001,
        "Average Income":46420.0,
        "state_name":"California",
        "lat":38.3278,
        "lng":-122.7092,
        "Price to Income Ratio":22.5209269711,
        "Income Range":"20000-50000"
    },
    {
        "state":"CA",
        "city":"cottonwood",
        "Average Price":459494.17,
        "Average Income":61149.33,
        "state_name":"California",
        "lat":40.3903,
        "lng":-122.3156,
        "Price to Income Ratio":7.5142960683,
        "Income Range":"50000-80000"
    },
    {
        "state":"CA",
        "city":"cottonwood",
        "Average Price":459494.17,
        "Average Income":61149.33,
        "state_name":"California",
        "lat":35.3464,
        "lng":-118.9851,
        "Price to Income Ratio":7.5142960683,
        "Income Range":"50000-80000"
    },
    {
        "state":"CA",
        "city":"coulterville",
        "Average Price":372005.38,
        "Average Income":63827.0,
        "state_name":"California",
        "lat":37.7123,
        "lng":-120.1967,
        "Price to Income Ratio":5.8283387908,
        "Income Range":"50000-80000"
    },
    {
        "state":"CA",
        "city":"covina",
        "Average Price":891139.21,
        "Average Income":83829.57,
        "state_name":"California",
        "lat":34.0903,
        "lng":-117.8818,
        "Price to Income Ratio":10.6303683772,
        "Income Range":"80000-110000"
    },
    {
        "state":"CA",
        "city":"crescent city",
        "Average Price":345359.59,
        "Average Income":57953.0,
        "state_name":"California",
        "lat":41.7728,
        "lng":-124.1902,
        "Price to Income Ratio":5.9593047815,
        "Income Range":"50000-80000"
    },
    {
        "state":"CA",
        "city":"creston",
        "Average Price":1321900.0,
        "Average Income":80023.0,
        "state_name":"California",
        "lat":35.5173,
        "lng":-120.521,
        "Price to Income Ratio":16.5190007873,
        "Income Range":"80000-110000"
    },
    {
        "state":"CA",
        "city":"crockett",
        "Average Price":688000.0,
        "Average Income":89975.0,
        "state_name":"California",
        "lat":38.0519,
        "lng":-122.2201,
        "Price to Income Ratio":7.6465684912,
        "Income Range":"80000-110000"
    },
    {
        "state":"CA",
        "city":"cudahy",
        "Average Price":1929090.0,
        "Average Income":46995.25,
        "state_name":"California",
        "lat":33.9631,
        "lng":-118.183,
        "Price to Income Ratio":41.0486166155,
        "Income Range":"20000-50000"
    },
    {
        "state":"CA",
        "city":"culver city",
        "Average Price":1646298.3300000001,
        "Average Income":115271.5,
        "state_name":"California",
        "lat":34.0058,
        "lng":-118.3968,
        "Price to Income Ratio":14.2819199021,
        "Income Range":"140000-170000"
    },
    {
        "state":"CA",
        "city":"cupertino",
        "Average Price":3075091.2400000002,
        "Average Income":151270.83,
        "state_name":"California",
        "lat":37.3168,
        "lng":-122.0466,
        "Price to Income Ratio":20.3283821474,
        "Income Range":"170000+"
    },
    {
        "state":"CA",
        "city":"cypress",
        "Average Price":917603.8199999999,
        "Average Income":163746.5,
        "state_name":"California",
        "lat":33.8171,
        "lng":-118.0386,
        "Price to Income Ratio":5.6038072264,
        "Income Range":"170000+"
    },
    {
        "state":"CA",
        "city":"daly city",
        "Average Price":1158164.3899999999,
        "Average Income":101587.57,
        "state_name":"California",
        "lat":37.6862,
        "lng":-122.4685,
        "Price to Income Ratio":11.4006505914,
        "Income Range":"80000-110000"
    },
    {
        "state":"CA",
        "city":"dana point",
        "Average Price":3957959.4300000002,
        "Average Income":99085.0,
        "state_name":"California",
        "lat":33.4733,
        "lng":-117.6967,
        "Price to Income Ratio":39.9450918908,
        "Income Range":"80000-110000"
    },
    {
        "state":"CA",
        "city":"danville",
        "Average Price":2386212.8599999999,
        "Average Income":143481.0,
        "state_name":"California",
        "lat":37.8121,
        "lng":-121.9698,
        "Price to Income Ratio":16.6308630411,
        "Income Range":"170000+"
    },
    {
        "state":"CA",
        "city":"davis",
        "Average Price":1038335.7,
        "Average Income":72537.8,
        "state_name":"California",
        "lat":38.5553,
        "lng":-121.737,
        "Price to Income Ratio":14.3144084877,
        "Income Range":"50000-80000"
    },
    {
        "state":"CA",
        "city":"del mar",
        "Average Price":7427883.1200000001,
        "Average Income":131231.0,
        "state_name":"California",
        "lat":32.9635,
        "lng":-117.2624,
        "Price to Income Ratio":56.6015889538,
        "Income Range":"170000+"
    },
    {
        "state":"CA",
        "city":"delano",
        "Average Price":537137.0,
        "Average Income":29954.0,
        "state_name":"California",
        "lat":35.7662,
        "lng":-119.2635,
        "Price to Income Ratio":17.9320624958,
        "Income Range":"20000-50000"
    },
    {
        "state":"CA",
        "city":"denair",
        "Average Price":516688.43,
        "Average Income":105985.0,
        "state_name":"California",
        "lat":37.5254,
        "lng":-120.7974,
        "Price to Income Ratio":4.8751090249,
        "Income Range":"80000-110000"
    },
    {
        "state":"CA",
        "city":"desert hot springs",
        "Average Price":366914.87,
        "Average Income":45601.5,
        "state_name":"California",
        "lat":33.955,
        "lng":-116.5429,
        "Price to Income Ratio":8.0461140533,
        "Income Range":"20000-50000"
    },
    {
        "state":"CA",
        "city":"diamond bar",
        "Average Price":1183199.6399999999,
        "Average Income":96565.0,
        "state_name":"California",
        "lat":33.9992,
        "lng":-117.8161,
        "Price to Income Ratio":12.2528829286,
        "Income Range":"80000-110000"
    },
    {
        "state":"CA",
        "city":"dinuba",
        "Average Price":423584.08,
        "Average Income":56137.0,
        "state_name":"California",
        "lat":36.5453,
        "lng":-119.3987,
        "Price to Income Ratio":7.5455417995,
        "Income Range":"50000-80000"
    },
    {
        "state":"CA",
        "city":"dixon",
        "Average Price":740678.53,
        "Average Income":74476.5,
        "state_name":"California",
        "lat":38.4469,
        "lng":-121.825,
        "Price to Income Ratio":9.9451307459,
        "Income Range":"50000-80000"
    },
    {
        "state":"CA",
        "city":"dos palos",
        "Average Price":781299.96,
        "Average Income":55580.5,
        "state_name":"California",
        "lat":36.9854,
        "lng":-120.6338,
        "Price to Income Ratio":14.0570876476,
        "Income Range":"50000-80000"
    },
    {
        "state":"CA",
        "city":"downey",
        "Average Price":1102242.9399999999,
        "Average Income":83078.19,
        "state_name":"California",
        "lat":33.9379,
        "lng":-118.1311,
        "Price to Income Ratio":13.2675367627,
        "Income Range":"80000-110000"
    },
    {
        "state":"CA",
        "city":"downieville",
        "Average Price":90749.5,
        "Average Income":21163.0,
        "state_name":"California",
        "lat":39.5701,
        "lng":-120.8213,
        "Price to Income Ratio":4.2881207768,
        "Income Range":"20000-50000"
    },
    {
        "state":"CA",
        "city":"duarte",
        "Average Price":957969.0,
        "Average Income":77921.25,
        "state_name":"California",
        "lat":34.161,
        "lng":-117.9504,
        "Price to Income Ratio":12.2940661245,
        "Income Range":"50000-80000"
    },
    {
        "state":"CA",
        "city":"dublin",
        "Average Price":1428745.1100000001,
        "Average Income":110983.5,
        "state_name":"California",
        "lat":37.7161,
        "lng":-121.8963,
        "Price to Income Ratio":12.8734911946,
        "Income Range":"110000-140000"
    },
    {
        "state":"CA",
        "city":"ducor",
        "Average Price":4900000.0,
        "Average Income":31274.0,
        "state_name":"California",
        "lat":35.8927,
        "lng":-119.047,
        "Price to Income Ratio":156.6796700134,
        "Income Range":"20000-50000"
    },
    {
        "state":"CA",
        "city":"dunsmuir",
        "Average Price":436994.44,
        "Average Income":45774.0,
        "state_name":"California",
        "lat":41.2317,
        "lng":-122.2715,
        "Price to Income Ratio":9.5467828899,
        "Income Range":"20000-50000"
    },
    {
        "state":"CA",
        "city":"earlimart",
        "Average Price":1017864.67,
        "Average Income":37464.0,
        "state_name":"California",
        "lat":35.8914,
        "lng":-119.2721,
        "Price to Income Ratio":27.1691402413,
        "Income Range":"20000-50000"
    },
    {
        "state":"CA",
        "city":"east palo alto",
        "Average Price":1751946.74,
        "Average Income":59653.0,
        "state_name":"California",
        "lat":37.4671,
        "lng":-122.1352,
        "Price to Income Ratio":29.3689628351,
        "Income Range":"50000-80000"
    },
    {
        "state":"CA",
        "city":"eastvale",
        "Average Price":236893.27,
        "Average Income":113676.0,
        "state_name":"California",
        "lat":33.9617,
        "lng":-117.5803,
        "Price to Income Ratio":2.0839338999,
        "Income Range":"110000-140000"
    },
    {
        "state":"CA",
        "city":"el cajon",
        "Average Price":692722.79,
        "Average Income":77735.25,
        "state_name":"California",
        "lat":32.8017,
        "lng":-116.9604,
        "Price to Income Ratio":8.9113084476,
        "Income Range":"50000-80000"
    },
    {
        "state":"CA",
        "city":"el centro",
        "Average Price":547866.0600000001,
        "Average Income":44411.5,
        "state_name":"California",
        "lat":32.7865,
        "lng":-115.5595,
        "Price to Income Ratio":12.3361305067,
        "Income Range":"20000-50000"
    },
    {
        "state":"CA",
        "city":"el cerrito",
        "Average Price":1043611.05,
        "Average Income":91020.75,
        "state_name":"California",
        "lat":37.9196,
        "lng":-122.3025,
        "Price to Income Ratio":11.465638879,
        "Income Range":"80000-110000"
    },
    {
        "state":"CA",
        "city":"el dorado hills",
        "Average Price":1254991.5700000001,
        "Average Income":151688.33,
        "state_name":"California",
        "lat":38.675,
        "lng":-121.049,
        "Price to Income Ratio":8.2734879473,
        "Income Range":"170000+"
    },
    {
        "state":"CA",
        "city":"el monte",
        "Average Price":919886.33,
        "Average Income":58231.64,
        "state_name":"California",
        "lat":34.0739,
        "lng":-118.0291,
        "Price to Income Ratio":15.7970191119,
        "Income Range":"50000-80000"
    },
    {
        "state":"CA",
        "city":"el segundo",
        "Average Price":1910490.9099999999,
        "Average Income":107331.0,
        "state_name":"California",
        "lat":33.917,
        "lng":-118.4018,
        "Price to Income Ratio":17.7999917079,
        "Income Range":"80000-110000"
    },
    {
        "state":"CA",
        "city":"elk creek",
        "Average Price":655750.0,
        "Average Income":53148.0,
        "state_name":"California",
        "lat":39.6004,
        "lng":-122.5375,
        "Price to Income Ratio":12.3381877023,
        "Income Range":"50000-80000"
    },
    {
        "state":"CA",
        "city":"elk grove",
        "Average Price":765303.0,
        "Average Income":89429.4,
        "state_name":"California",
        "lat":38.4161,
        "lng":-121.3842,
        "Price to Income Ratio":8.5576219901,
        "Income Range":"80000-110000"
    },
    {
        "state":"CA",
        "city":"emeryville",
        "Average Price":660648.89,
        "Average Income":61154.0,
        "state_name":"California",
        "lat":37.8382,
        "lng":-122.2932,
        "Price to Income Ratio":10.8030364326,
        "Income Range":"50000-80000"
    },
    {
        "state":"CA",
        "city":"encinitas",
        "Average Price":2653705.3700000001,
        "Average Income":117298.5,
        "state_name":"California",
        "lat":33.0492,
        "lng":-117.261,
        "Price to Income Ratio":22.6235234892,
        "Income Range":"170000+"
    },
    {
        "state":"CA",
        "city":"escalon",
        "Average Price":1185482.3999999999,
        "Average Income":55907.0,
        "state_name":"California",
        "lat":37.7912,
        "lng":-120.9982,
        "Price to Income Ratio":21.2045432593,
        "Income Range":"50000-80000"
    },
    {
        "state":"CA",
        "city":"escondido",
        "Average Price":959383.66,
        "Average Income":73626.07,
        "state_name":"California",
        "lat":33.1348,
        "lng":-117.0723,
        "Price to Income Ratio":13.0304885213,
        "Income Range":"50000-80000"
    },
    {
        "state":"CA",
        "city":"esparto",
        "Average Price":1133486.8300000001,
        "Average Income":83250.0,
        "state_name":"California",
        "lat":38.6934,
        "lng":-122.0241,
        "Price to Income Ratio":13.6154574174,
        "Income Range":"80000-110000"
    },
    {
        "state":"CA",
        "city":"eureka",
        "Average Price":673742.21,
        "Average Income":65540.71,
        "state_name":"California",
        "lat":40.7943,
        "lng":-124.1564,
        "Price to Income Ratio":10.2797514705,
        "Income Range":"50000-80000"
    },
    {
        "state":"CA",
        "city":"exeter",
        "Average Price":556150.89,
        "Average Income":79757.0,
        "state_name":"California",
        "lat":36.2941,
        "lng":-119.1459,
        "Price to Income Ratio":6.9730668155,
        "Income Range":"50000-80000"
    },
    {
        "state":"CA",
        "city":"fair oaks",
        "Average Price":682189.28,
        "Average Income":104319.75,
        "state_name":"California",
        "lat":38.6504,
        "lng":-121.2496,
        "Price to Income Ratio":6.5394067758,
        "Income Range":"80000-110000"
    },
    {
        "state":"CA",
        "city":"fairfield",
        "Average Price":901122.54,
        "Average Income":73944.89,
        "state_name":"California",
        "lat":38.2583,
        "lng":-122.0335,
        "Price to Income Ratio":12.1864072014,
        "Income Range":"50000-80000"
    },
    {
        "state":"CA",
        "city":"fall river mills",
        "Average Price":694815.79,
        "Average Income":63828.0,
        "state_name":"California",
        "lat":41.0069,
        "lng":-121.4401,
        "Price to Income Ratio":10.8857521777,
        "Income Range":"50000-80000"
    },
    {
        "state":"CA",
        "city":"fallbrook",
        "Average Price":1097401.99,
        "Average Income":63353.33,
        "state_name":"California",
        "lat":33.3693,
        "lng":-117.2259,
        "Price to Income Ratio":17.3219306704,
        "Income Range":"50000-80000"
    },
    {
        "state":"CA",
        "city":"fillmore",
        "Average Price":786642.62,
        "Average Income":66371.0,
        "state_name":"California",
        "lat":34.3989,
        "lng":-118.9174,
        "Price to Income Ratio":11.852203824,
        "Income Range":"50000-80000"
    },
    {
        "state":"CA",
        "city":"firebaugh",
        "Average Price":1525378.4199999999,
        "Average Income":59164.0,
        "state_name":"California",
        "lat":36.8533,
        "lng":-120.4535,
        "Price to Income Ratio":25.7822057332,
        "Income Range":"50000-80000"
    },
    {
        "state":"CA",
        "city":"folsom",
        "Average Price":845695.97,
        "Average Income":94830.17,
        "state_name":"California",
        "lat":38.6668,
        "lng":-121.1422,
        "Price to Income Ratio":8.9180054196,
        "Income Range":"80000-110000"
    },
    {
        "state":"CA",
        "city":"fontana",
        "Average Price":783623.71,
        "Average Income":58646.38,
        "state_name":"California",
        "lat":34.0968,
        "lng":-117.4599,
        "Price to Income Ratio":13.361842794,
        "Income Range":"50000-80000"
    },
    {
        "state":"CA",
        "city":"forestville",
        "Average Price":1304519.6399999999,
        "Average Income":88066.0,
        "state_name":"California",
        "lat":38.4825,
        "lng":-122.8899,
        "Price to Income Ratio":14.8129770854,
        "Income Range":"80000-110000"
    },
    {
        "state":"CA",
        "city":"fort bragg",
        "Average Price":703634.21,
        "Average Income":44250.33,
        "state_name":"California",
        "lat":39.4399,
        "lng":-123.8013,
        "Price to Income Ratio":15.9012194937,
        "Income Range":"20000-50000"
    },
    {
        "state":"CA",
        "city":"fortuna",
        "Average Price":588726.79,
        "Average Income":68994.0,
        "state_name":"California",
        "lat":40.5862,
        "lng":-124.1419,
        "Price to Income Ratio":8.5330143201,
        "Income Range":"50000-80000"
    },
    {
        "state":"CA",
        "city":"foster city",
        "Average Price":1624739.1299999999,
        "Average Income":128534.33,
        "state_name":"California",
        "lat":37.5553,
        "lng":-122.2659,
        "Price to Income Ratio":12.6405072481,
        "Income Range":"170000+"
    },
    {
        "state":"CA",
        "city":"fountain valley",
        "Average Price":963964.25,
        "Average Income":99421.75,
        "state_name":"California",
        "lat":33.7105,
        "lng":-117.9514,
        "Price to Income Ratio":9.6957079311,
        "Income Range":"80000-110000"
    },
    {
        "state":"CA",
        "city":"fowler",
        "Average Price":447912.1,
        "Average Income":68012.0,
        "state_name":"California",
        "lat":36.6243,
        "lng":-119.6737,
        "Price to Income Ratio":6.5857804505,
        "Income Range":"50000-80000"
    },
    {
        "state":"CA",
        "city":"freedom",
        "Average Price":606799.0,
        "Average Income":29985.0,
        "state_name":"California",
        "lat":36.9403,
        "lng":-121.7953,
        "Price to Income Ratio":20.2367517092,
        "Income Range":"20000-50000"
    },
    {
        "state":"CA",
        "city":"fremont",
        "Average Price":1454509.5700000001,
        "Average Income":112430.47,
        "state_name":"California",
        "lat":37.5265,
        "lng":-121.9843,
        "Price to Income Ratio":12.9369695777,
        "Income Range":"110000-140000"
    },
    {
        "state":"CA",
        "city":"fresno",
        "Average Price":515207.98,
        "Average Income":57730.15,
        "state_name":"California",
        "lat":36.783,
        "lng":-119.7939,
        "Price to Income Ratio":8.9244178302,
        "Income Range":"50000-80000"
    },
    {
        "state":"CA",
        "city":"fullerton",
        "Average Price":1109232.8400000001,
        "Average Income":79418.55,
        "state_name":"California",
        "lat":33.8841,
        "lng":-117.9279,
        "Price to Income Ratio":13.9669238484,
        "Income Range":"50000-80000"
    },
    {
        "state":"CA",
        "city":"galt",
        "Average Price":701341.05,
        "Average Income":62077.0,
        "state_name":"California",
        "lat":38.2698,
        "lng":-121.3004,
        "Price to Income Ratio":11.2979211302,
        "Income Range":"50000-80000"
    },
    {
        "state":"CA",
        "city":"garden grove",
        "Average Price":1039731.0600000001,
        "Average Income":68785.67,
        "state_name":"California",
        "lat":33.7787,
        "lng":-117.9601,
        "Price to Income Ratio":15.1155183921,
        "Income Range":"50000-80000"
    },
    {
        "state":"CA",
        "city":"gardena",
        "Average Price":908533.58,
        "Average Income":62308.86,
        "state_name":"California",
        "lat":33.8943,
        "lng":-118.3072,
        "Price to Income Ratio":14.5811298746,
        "Income Range":"50000-80000"
    },
    {
        "state":"CA",
        "city":"gilroy",
        "Average Price":1885830.23,
        "Average Income":82760.6,
        "state_name":"California",
        "lat":37.0046,
        "lng":-121.5854,
        "Price to Income Ratio":22.7865703004,
        "Income Range":"80000-110000"
    },
    {
        "state":"CA",
        "city":"glen ellen",
        "Average Price":2610325.0,
        "Average Income":115139.0,
        "state_name":"California",
        "lat":38.3564,
        "lng":-122.5412,
        "Price to Income Ratio":22.6710758301,
        "Income Range":"140000-170000"
    },
    {
        "state":"CA",
        "city":"glendale",
        "Average Price":1256179.2,
        "Average Income":78447.12,
        "state_name":"California",
        "lat":34.1819,
        "lng":-118.2468,
        "Price to Income Ratio":16.0130696959,
        "Income Range":"50000-80000"
    },
    {
        "state":"CA",
        "city":"glendora",
        "Average Price":1353373.1499999999,
        "Average Income":88983.12,
        "state_name":"California",
        "lat":34.1449,
        "lng":-117.8467,
        "Price to Income Ratio":15.2093245326,
        "Income Range":"80000-110000"
    },
    {
        "state":"CA",
        "city":"gold river",
        "Average Price":720977.11,
        "Average Income":143292.0,
        "state_name":"California",
        "lat":38.6268,
        "lng":-121.2488,
        "Price to Income Ratio":5.0315238115,
        "Income Range":"170000+"
    },
    {
        "state":"CA",
        "city":"goleta",
        "Average Price":4363920.5099999998,
        "Average Income":64325.2,
        "state_name":"California",
        "lat":34.4361,
        "lng":-119.8594,
        "Price to Income Ratio":67.841538153,
        "Income Range":"50000-80000"
    },
    {
        "state":"CA",
        "city":"grand terrace",
        "Average Price":607353.67,
        "Average Income":57997.33,
        "state_name":"California",
        "lat":34.0312,
        "lng":-117.3132,
        "Price to Income Ratio":10.4720970776,
        "Income Range":"50000-80000"
    },
    {
        "state":"CA",
        "city":"granite bay",
        "Average Price":1612747.1899999999,
        "Average Income":132808.0,
        "state_name":"California",
        "lat":38.7601,
        "lng":-121.1714,
        "Price to Income Ratio":12.1434491145,
        "Income Range":"170000+"
    },
    {
        "state":"CA",
        "city":"grass valley",
        "Average Price":545286.85,
        "Average Income":68782.25,
        "state_name":"California",
        "lat":39.2238,
        "lng":-121.0522,
        "Price to Income Ratio":7.9277262666,
        "Income Range":"50000-80000"
    },
    {
        "state":"CA",
        "city":"greenfield",
        "Average Price":768256.52,
        "Average Income":48881.0,
        "state_name":"California",
        "lat":36.3242,
        "lng":-121.2428,
        "Price to Income Ratio":15.716874041,
        "Income Range":"20000-50000"
    },
    {
        "state":"CA",
        "city":"greenville",
        "Average Price":856028.5699999999,
        "Average Income":32933.33,
        "state_name":"California",
        "lat":40.1336,
        "lng":-120.9454,
        "Price to Income Ratio":25.992772975,
        "Income Range":"20000-50000"
    },
    {
        "state":"CA",
        "city":"gridley",
        "Average Price":906245.41,
        "Average Income":69574.0,
        "state_name":"California",
        "lat":39.3622,
        "lng":-121.6971,
        "Price to Income Ratio":13.0256332825,
        "Income Range":"50000-80000"
    },
    {
        "state":"CA",
        "city":"grover beach",
        "Average Price":738936.36,
        "Average Income":56701.0,
        "state_name":"California",
        "lat":35.1204,
        "lng":-120.6197,
        "Price to Income Ratio":13.0321574575,
        "Income Range":"50000-80000"
    },
    {
        "state":"CA",
        "city":"guadalupe",
        "Average Price":1213701.3999999999,
        "Average Income":52410.0,
        "state_name":"California",
        "lat":34.9609,
        "lng":-120.5735,
        "Price to Income Ratio":23.1578210265,
        "Income Range":"50000-80000"
    },
    {
        "state":"CA",
        "city":"guerneville",
        "Average Price":551140.6,
        "Average Income":61728.0,
        "state_name":"California",
        "lat":38.5137,
        "lng":-122.9894,
        "Price to Income Ratio":8.9285348626,
        "Income Range":"50000-80000"
    },
    {
        "state":"CA",
        "city":"gustine",
        "Average Price":334106.12,
        "Average Income":46245.0,
        "state_name":"California",
        "lat":37.2545,
        "lng":-120.9949,
        "Price to Income Ratio":7.2246971564,
        "Income Range":"20000-50000"
    },
    {
        "state":"CA",
        "city":"hacienda heights",
        "Average Price":1093559.9099999999,
        "Average Income":103234.25,
        "state_name":"California",
        "lat":33.997,
        "lng":-117.9727,
        "Price to Income Ratio":10.5929951542,
        "Income Range":"80000-110000"
    },
    {
        "state":"CA",
        "city":"half moon bay",
        "Average Price":1326701.8500000001,
        "Average Income":111284.33,
        "state_name":"California",
        "lat":37.4685,
        "lng":-122.4382,
        "Price to Income Ratio":11.921731029,
        "Income Range":"110000-140000"
    },
    {
        "state":"CA",
        "city":"hamilton city",
        "Average Price":334500.0,
        "Average Income":47707.0,
        "state_name":"California",
        "lat":39.7427,
        "lng":-122.011,
        "Price to Income Ratio":7.0115496678,
        "Income Range":"20000-50000"
    },
    {
        "state":"CA",
        "city":"hanford",
        "Average Price":529637.36,
        "Average Income":68252.33,
        "state_name":"California",
        "lat":36.3274,
        "lng":-119.6549,
        "Price to Income Ratio":7.7599894392,
        "Income Range":"50000-80000"
    },
    {
        "state":"CA",
        "city":"hawaiian gardens",
        "Average Price":609299.92,
        "Average Income":115804.0,
        "state_name":"California",
        "lat":33.8304,
        "lng":-118.0728,
        "Price to Income Ratio":5.2614755967,
        "Income Range":"140000-170000"
    },
    {
        "state":"CA",
        "city":"hawthorne",
        "Average Price":981855.14,
        "Average Income":65463.0,
        "state_name":"California",
        "lat":33.9147,
        "lng":-118.3476,
        "Price to Income Ratio":14.9986273162,
        "Income Range":"50000-80000"
    },
    {
        "state":"CA",
        "city":"hayward",
        "Average Price":968074.1,
        "Average Income":74699.0,
        "state_name":"California",
        "lat":37.6328,
        "lng":-122.0766,
        "Price to Income Ratio":12.9596661267,
        "Income Range":"50000-80000"
    },
    {
        "state":"CA",
        "city":"healdsburg",
        "Average Price":2698382.6800000002,
        "Average Income":88532.33,
        "state_name":"California",
        "lat":38.6224,
        "lng":-122.8651,
        "Price to Income Ratio":30.4790654442,
        "Income Range":"80000-110000"
    },
    {
        "state":"CA",
        "city":"hemet",
        "Average Price":398589.78,
        "Average Income":54605.33,
        "state_name":"California",
        "lat":33.7341,
        "lng":-116.9969,
        "Price to Income Ratio":7.2994665539,
        "Income Range":"50000-80000"
    },
    {
        "state":"CA",
        "city":"herald",
        "Average Price":825000.0,
        "Average Income":105322.0,
        "state_name":"California",
        "lat":38.2913,
        "lng":-121.2318,
        "Price to Income Ratio":7.8331212852,
        "Income Range":"80000-110000"
    },
    {
        "state":"CA",
        "city":"hercules",
        "Average Price":915187.2,
        "Average Income":108030.0,
        "state_name":"California",
        "lat":38.0064,
        "lng":-122.2564,
        "Price to Income Ratio":8.4716023327,
        "Income Range":"80000-110000"
    },
    {
        "state":"CA",
        "city":"herlong",
        "Average Price":67630.77,
        "Average Income":123055.0,
        "state_name":"California",
        "lat":40.1417,
        "lng":-120.1397,
        "Price to Income Ratio":0.5495979034,
        "Income Range":"170000+"
    },
    {
        "state":"CA",
        "city":"hermosa beach",
        "Average Price":4433218.1600000001,
        "Average Income":132479.0,
        "state_name":"California",
        "lat":33.8653,
        "lng":-118.3962,
        "Price to Income Ratio":33.4635539218,
        "Income Range":"170000+"
    },
    {
        "state":"CA",
        "city":"hesperia",
        "Average Price":455194.73,
        "Average Income":55908.75,
        "state_name":"California",
        "lat":34.3975,
        "lng":-117.3147,
        "Price to Income Ratio":8.1417440025,
        "Income Range":"50000-80000"
    },
    {
        "state":"CA",
        "city":"highland",
        "Average Price":482446.88,
        "Average Income":71572.25,
        "state_name":"California",
        "lat":34.1113,
        "lng":-117.165,
        "Price to Income Ratio":6.7406974072,
        "Income Range":"50000-80000"
    },
    {
        "state":"CA",
        "city":"hillsborough",
        "Average Price":8598758.1199999992,
        "Average Income":173210.0,
        "state_name":"California",
        "lat":37.5572,
        "lng":-122.3586,
        "Price to Income Ratio":49.6435432134,
        "Income Range":"170000+"
    },
    {
        "state":"CA",
        "city":"hollister",
        "Average Price":1142094.9099999999,
        "Average Income":86902.6,
        "state_name":"California",
        "lat":36.8555,
        "lng":-121.3986,
        "Price to Income Ratio":13.1422409686,
        "Income Range":"80000-110000"
    },
    {
        "state":"CA",
        "city":"holtville",
        "Average Price":283725.0,
        "Average Income":41460.0,
        "state_name":"California",
        "lat":32.8129,
        "lng":-115.3779,
        "Price to Income Ratio":6.8433429812,
        "Income Range":"20000-50000"
    },
    {
        "state":"CA",
        "city":"hoopa",
        "Average Price":400000.0,
        "Average Income":42756.0,
        "state_name":"California",
        "lat":41.0803,
        "lng":-123.6972,
        "Price to Income Ratio":9.3554121059,
        "Income Range":"20000-50000"
    },
    {
        "state":"CA",
        "city":"hughson",
        "Average Price":953306.21,
        "Average Income":74779.0,
        "state_name":"California",
        "lat":37.602,
        "lng":-120.866,
        "Price to Income Ratio":12.7483145001,
        "Income Range":"50000-80000"
    },
    {
        "state":"CA",
        "city":"huntington beach",
        "Average Price":1306743.1399999999,
        "Average Income":99406.06,
        "state_name":"California",
        "lat":33.696,
        "lng":-118.0018,
        "Price to Income Ratio":13.1455078292,
        "Income Range":"80000-110000"
    },
    {
        "state":"CA",
        "city":"huntington park",
        "Average Price":802618.73,
        "Average Income":38400.0,
        "state_name":"California",
        "lat":33.98,
        "lng":-118.2167,
        "Price to Income Ratio":20.9015294271,
        "Income Range":"20000-50000"
    },
    {
        "state":"CA",
        "city":"imperial",
        "Average Price":411815.43,
        "Average Income":82874.0,
        "state_name":"California",
        "lat":32.839,
        "lng":-115.572,
        "Price to Income Ratio":4.969175254,
        "Income Range":"80000-110000"
    },
    {
        "state":"CA",
        "city":"imperial beach",
        "Average Price":871591.8100000001,
        "Average Income":52337.67,
        "state_name":"California",
        "lat":32.5693,
        "lng":-117.118,
        "Price to Income Ratio":16.6532405818,
        "Income Range":"50000-80000"
    },
    {
        "state":"CA",
        "city":"independence",
        "Average Price":187000.0,
        "Average Income":64939.0,
        "state_name":"California",
        "lat":36.8275,
        "lng":-118.2132,
        "Price to Income Ratio":2.8796254947,
        "Income Range":"50000-80000"
    },
    {
        "state":"CA",
        "city":"indio",
        "Average Price":612922.28,
        "Average Income":55105.8,
        "state_name":"California",
        "lat":33.7346,
        "lng":-116.2346,
        "Price to Income Ratio":11.1226455291,
        "Income Range":"50000-80000"
    },
    {
        "state":"CA",
        "city":"inglewood",
        "Average Price":1017672.3100000001,
        "Average Income":54139.45,
        "state_name":"California",
        "lat":33.9566,
        "lng":-118.3444,
        "Price to Income Ratio":18.7972413831,
        "Income Range":"50000-80000"
    },
    {
        "state":"CA",
        "city":"inyokern",
        "Average Price":116330.1,
        "Average Income":125966.0,
        "state_name":"California",
        "lat":35.6546,
        "lng":-117.8213,
        "Price to Income Ratio":0.9235039614,
        "Income Range":"170000+"
    },
    {
        "state":"CA",
        "city":"ione",
        "Average Price":436441.19,
        "Average Income":67768.0,
        "state_name":"California",
        "lat":38.3613,
        "lng":-120.9422,
        "Price to Income Ratio":6.4402253276,
        "Income Range":"50000-80000"
    },
    {
        "state":"CA",
        "city":"irvine",
        "Average Price":1886128.0600000001,
        "Average Income":94079.86,
        "state_name":"California",
        "lat":33.6772,
        "lng":-117.7738,
        "Price to Income Ratio":20.048159723,
        "Income Range":"80000-110000"
    },
    {
        "state":"CA",
        "city":"ivanhoe",
        "Average Price":231150.0,
        "Average Income":37270.0,
        "state_name":"California",
        "lat":36.3834,
        "lng":-119.22,
        "Price to Income Ratio":6.2020391736,
        "Income Range":"20000-50000"
    },
    {
        "state":"CA",
        "city":"jackson",
        "Average Price":436003.79,
        "Average Income":68022.0,
        "state_name":"California",
        "lat":38.3485,
        "lng":-120.7728,
        "Price to Income Ratio":6.4097466996,
        "Income Range":"50000-80000"
    },
    {
        "state":"CA",
        "city":"jamul",
        "Average Price":722271.74,
        "Average Income":95223.0,
        "state_name":"California",
        "lat":32.7184,
        "lng":-116.8709,
        "Price to Income Ratio":7.5850555013,
        "Income Range":"80000-110000"
    },
    {
        "state":"CA",
        "city":"janesville",
        "Average Price":490421.5,
        "Average Income":72742.0,
        "state_name":"California",
        "lat":40.2993,
        "lng":-120.5024,
        "Price to Income Ratio":6.7419303841,
        "Income Range":"50000-80000"
    },
    {
        "state":"CA",
        "city":"jurupa valley",
        "Average Price":719825.87,
        "Average Income":68866.14,
        "state_name":"California",
        "lat":34.001,
        "lng":-117.4706,
        "Price to Income Ratio":10.4525369071,
        "Income Range":"50000-80000"
    },
    {
        "state":"CA",
        "city":"kelseyville",
        "Average Price":288839.79,
        "Average Income":61941.0,
        "state_name":"California",
        "lat":38.9704,
        "lng":-122.8328,
        "Price to Income Ratio":4.6631437981,
        "Income Range":"50000-80000"
    },
    {
        "state":"CA",
        "city":"kensington",
        "Average Price":1375384.6200000001,
        "Average Income":141291.0,
        "state_name":"California",
        "lat":37.9083,
        "lng":-122.2805,
        "Price to Income Ratio":9.7344106843,
        "Income Range":"170000+"
    },
    {
        "state":"CA",
        "city":"kenwood",
        "Average Price":3131200.0,
        "Average Income":87850.5,
        "state_name":"California",
        "lat":38.4153,
        "lng":-122.5387,
        "Price to Income Ratio":35.6423697076,
        "Income Range":"80000-110000"
    },
    {
        "state":"CA",
        "city":"kerman",
        "Average Price":889515.6800000001,
        "Average Income":45548.0,
        "state_name":"California",
        "lat":36.7248,
        "lng":-120.0625,
        "Price to Income Ratio":19.5291929393,
        "Income Range":"20000-50000"
    },
    {
        "state":"CA",
        "city":"king city",
        "Average Price":561548.0,
        "Average Income":68913.0,
        "state_name":"California",
        "lat":36.2164,
        "lng":-121.133,
        "Price to Income Ratio":8.1486511979,
        "Income Range":"50000-80000"
    },
    {
        "state":"CA",
        "city":"kingsburg",
        "Average Price":702881.66,
        "Average Income":124958.0,
        "state_name":"California",
        "lat":36.5244,
        "lng":-119.5602,
        "Price to Income Ratio":5.6249432609,
        "Income Range":"170000+"
    },
    {
        "state":"CA",
        "city":"knights ferry",
        "Average Price":2415000.0,
        "Average Income":73534.0,
        "state_name":"California",
        "lat":37.8199,
        "lng":-120.6704,
        "Price to Income Ratio":32.8419506623,
        "Income Range":"50000-80000"
    },
    {
        "state":"CA",
        "city":"la habra",
        "Average Price":711468.11,
        "Average Income":81280.71,
        "state_name":"California",
        "lat":33.9282,
        "lng":-117.9515,
        "Price to Income Ratio":8.753222136,
        "Income Range":"80000-110000"
    },
    {
        "state":"CA",
        "city":"la mesa",
        "Average Price":975331.3100000001,
        "Average Income":63263.79,
        "state_name":"California",
        "lat":32.7703,
        "lng":-117.0204,
        "Price to Income Ratio":15.4168966165,
        "Income Range":"50000-80000"
    },
    {
        "state":"CA",
        "city":"la mirada",
        "Average Price":831982.51,
        "Average Income":94684.0,
        "state_name":"California",
        "lat":33.9025,
        "lng":-118.0093,
        "Price to Income Ratio":8.7869387647,
        "Income Range":"80000-110000"
    },
    {
        "state":"CA",
        "city":"la puente",
        "Average Price":735621.02,
        "Average Income":71689.9,
        "state_name":"California",
        "lat":34.0323,
        "lng":-117.9533,
        "Price to Income Ratio":10.2611528263,
        "Income Range":"50000-80000"
    },
    {
        "state":"CA",
        "city":"la quinta",
        "Average Price":1477259.54,
        "Average Income":61644.0,
        "state_name":"California",
        "lat":33.6536,
        "lng":-116.2785,
        "Price to Income Ratio":23.9643686328,
        "Income Range":"50000-80000"
    },
    {
        "state":"CA",
        "city":"ladera ranch",
        "Average Price":1811016.55,
        "Average Income":139229.25,
        "state_name":"California",
        "lat":33.5492,
        "lng":-117.6417,
        "Price to Income Ratio":13.0074431199,
        "Income Range":"170000+"
    },
    {
        "state":"CA",
        "city":"lafayette",
        "Average Price":2235421.7999999998,
        "Average Income":157484.0,
        "state_name":"California",
        "lat":37.8919,
        "lng":-122.1189,
        "Price to Income Ratio":14.1945962764,
        "Income Range":"170000+"
    },
    {
        "state":"CA",
        "city":"laguna beach",
        "Average Price":4776933.21,
        "Average Income":82834.33,
        "state_name":"California",
        "lat":33.5455,
        "lng":-117.7613,
        "Price to Income Ratio":57.668519924,
        "Income Range":"80000-110000"
    },
    {
        "state":"CA",
        "city":"laguna hills",
        "Average Price":1231168.8400000001,
        "Average Income":65319.2,
        "state_name":"California",
        "lat":33.5918,
        "lng":-117.6991,
        "Price to Income Ratio":18.8484984507,
        "Income Range":"50000-80000"
    },
    {
        "state":"CA",
        "city":"laguna niguel",
        "Average Price":2737850.6200000001,
        "Average Income":120875.14,
        "state_name":"California",
        "lat":33.5275,
        "lng":-117.705,
        "Price to Income Ratio":22.6502374268,
        "Income Range":"170000+"
    },
    {
        "state":"CA",
        "city":"lake arrowhead",
        "Average Price":892730.95,
        "Average Income":58456.8,
        "state_name":"California",
        "lat":34.2531,
        "lng":-117.1944,
        "Price to Income Ratio":15.2716356352,
        "Income Range":"50000-80000"
    },
    {
        "state":"CA",
        "city":"lake elsinore",
        "Average Price":458098.94,
        "Average Income":49658.25,
        "state_name":"California",
        "lat":33.6847,
        "lng":-117.3344,
        "Price to Income Ratio":9.225031893,
        "Income Range":"20000-50000"
    },
    {
        "state":"CA",
        "city":"lake forest",
        "Average Price":1197675.71,
        "Average Income":93905.0,
        "state_name":"California",
        "lat":33.6605,
        "lng":-117.6714,
        "Price to Income Ratio":12.7541207603,
        "Income Range":"80000-110000"
    },
    {
        "state":"CA",
        "city":"lake hughes",
        "Average Price":261526.62,
        "Average Income":71766.0,
        "state_name":"California",
        "lat":34.6832,
        "lng":-118.4588,
        "Price to Income Ratio":3.6441576791,
        "Income Range":"50000-80000"
    },
    {
        "state":"CA",
        "city":"lake isabella",
        "Average Price":154044.32,
        "Average Income":52875.0,
        "state_name":"California",
        "lat":35.6378,
        "lng":-118.482,
        "Price to Income Ratio":2.9133677541,
        "Income Range":"50000-80000"
    },
    {
        "state":"CA",
        "city":"lakeport",
        "Average Price":500493.93,
        "Average Income":57078.0,
        "state_name":"California",
        "lat":39.0392,
        "lng":-122.9218,
        "Price to Income Ratio":8.7685961316,
        "Income Range":"50000-80000"
    },
    {
        "state":"CA",
        "city":"lakeside",
        "Average Price":674995.84,
        "Average Income":94236.0,
        "state_name":"California",
        "lat":32.856,
        "lng":-116.904,
        "Price to Income Ratio":7.1628235494,
        "Income Range":"80000-110000"
    },
    {
        "state":"CA",
        "city":"lakeside",
        "Average Price":674995.84,
        "Average Income":94236.0,
        "state_name":"California",
        "lat":35.2347,
        "lng":-119.0829,
        "Price to Income Ratio":7.1628235494,
        "Income Range":"80000-110000"
    },
    {
        "state":"CA",
        "city":"lakewood",
        "Average Price":828287.12,
        "Average Income":103878.0,
        "state_name":"California",
        "lat":33.8471,
        "lng":-118.1222,
        "Price to Income Ratio":7.973652939,
        "Income Range":"80000-110000"
    },
    {
        "state":"CA",
        "city":"lamont",
        "Average Price":296499.33,
        "Average Income":39654.0,
        "state_name":"California",
        "lat":35.2659,
        "lng":-118.9159,
        "Price to Income Ratio":7.47716069,
        "Income Range":"20000-50000"
    },
    {
        "state":"CA",
        "city":"lancaster",
        "Average Price":338044.21,
        "Average Income":52545.79,
        "state_name":"California",
        "lat":34.6935,
        "lng":-118.1753,
        "Price to Income Ratio":6.4333262475,
        "Income Range":"50000-80000"
    },
    {
        "state":"CA",
        "city":"larkspur",
        "Average Price":1821666.6699999999,
        "Average Income":82393.0,
        "state_name":"California",
        "lat":37.9393,
        "lng":-122.5312,
        "Price to Income Ratio":22.1094834513,
        "Income Range":"80000-110000"
    },
    {
        "state":"CA",
        "city":"laton",
        "Average Price":1012400.0,
        "Average Income":50949.0,
        "state_name":"California",
        "lat":36.4314,
        "lng":-119.6976,
        "Price to Income Ratio":19.8708512434,
        "Income Range":"50000-80000"
    },
    {
        "state":"CA",
        "city":"lawndale",
        "Average Price":849470.97,
        "Average Income":56150.25,
        "state_name":"California",
        "lat":33.8884,
        "lng":-118.3531,
        "Price to Income Ratio":15.1285340671,
        "Income Range":"50000-80000"
    },
    {
        "state":"CA",
        "city":"lebec",
        "Average Price":2236738.5600000001,
        "Average Income":53093.33,
        "state_name":"California",
        "lat":34.845,
        "lng":-118.8992,
        "Price to Income Ratio":42.1284285616,
        "Income Range":"50000-80000"
    },
    {
        "state":"CA",
        "city":"lemon grove",
        "Average Price":752702.16,
        "Average Income":69245.0,
        "state_name":"California",
        "lat":32.7331,
        "lng":-117.0344,
        "Price to Income Ratio":10.8701301177,
        "Income Range":"50000-80000"
    },
    {
        "state":"CA",
        "city":"lemoore",
        "Average Price":1005601.53,
        "Average Income":72600.0,
        "state_name":"California",
        "lat":36.2949,
        "lng":-119.7983,
        "Price to Income Ratio":13.8512607438,
        "Income Range":"50000-80000"
    },
    {
        "state":"CA",
        "city":"lennox",
        "Average Price":1249000.0,
        "Average Income":42805.0,
        "state_name":"California",
        "lat":33.938,
        "lng":-118.3586,
        "Price to Income Ratio":29.1788342483,
        "Income Range":"20000-50000"
    },
    {
        "state":"CA",
        "city":"lincoln",
        "Average Price":748947.47,
        "Average Income":63590.33,
        "state_name":"California",
        "lat":38.8774,
        "lng":-121.2937,
        "Price to Income Ratio":11.7776943444,
        "Income Range":"50000-80000"
    },
    {
        "state":"CA",
        "city":"lindsay",
        "Average Price":1103070.77,
        "Average Income":48863.5,
        "state_name":"California",
        "lat":36.2082,
        "lng":-119.0897,
        "Price to Income Ratio":22.5745345708,
        "Income Range":"20000-50000"
    },
    {
        "state":"CA",
        "city":"litchfield",
        "Average Price":691000.0,
        "Average Income":78642.0,
        "state_name":"California",
        "lat":40.3877,
        "lng":-120.3807,
        "Price to Income Ratio":8.7866534422,
        "Income Range":"50000-80000"
    },
    {
        "state":"CA",
        "city":"live oak",
        "Average Price":709681.25,
        "Average Income":65852.0,
        "state_name":"California",
        "lat":36.986,
        "lng":-121.9804,
        "Price to Income Ratio":10.7769126222,
        "Income Range":"50000-80000"
    },
    {
        "state":"CA",
        "city":"livermore",
        "Average Price":1401172.02,
        "Average Income":107116.11,
        "state_name":"California",
        "lat":37.6868,
        "lng":-121.7607,
        "Price to Income Ratio":13.0808710286,
        "Income Range":"80000-110000"
    },
    {
        "state":"CA",
        "city":"livingston",
        "Average Price":1157278.54,
        "Average Income":58644.5,
        "state_name":"California",
        "lat":37.3875,
        "lng":-120.7248,
        "Price to Income Ratio":19.733794985,
        "Income Range":"50000-80000"
    },
    {
        "state":"CA",
        "city":"lockeford",
        "Average Price":442150.0,
        "Average Income":89853.0,
        "state_name":"California",
        "lat":38.1508,
        "lng":-121.1554,
        "Price to Income Ratio":4.9208151091,
        "Income Range":"80000-110000"
    },
    {
        "state":"CA",
        "city":"lodi",
        "Average Price":694369.38,
        "Average Income":80606.12,
        "state_name":"California",
        "lat":38.1218,
        "lng":-121.2932,
        "Price to Income Ratio":8.6143506225,
        "Income Range":"80000-110000"
    },
    {
        "state":"CA",
        "city":"loma linda",
        "Average Price":664309.6800000001,
        "Average Income":106524.0,
        "state_name":"California",
        "lat":34.045,
        "lng":-117.2498,
        "Price to Income Ratio":6.2362442267,
        "Income Range":"80000-110000"
    },
    {
        "state":"CA",
        "city":"lomita",
        "Average Price":1018932.13,
        "Average Income":92814.67,
        "state_name":"California",
        "lat":33.7933,
        "lng":-118.3175,
        "Price to Income Ratio":10.9781366459,
        "Income Range":"80000-110000"
    },
    {
        "state":"CA",
        "city":"lompoc",
        "Average Price":1194094.6699999999,
        "Average Income":64472.2,
        "state_name":"California",
        "lat":34.6618,
        "lng":-120.4714,
        "Price to Income Ratio":18.5210783873,
        "Income Range":"50000-80000"
    },
    {
        "state":"CA",
        "city":"long beach",
        "Average Price":993494.23,
        "Average Income":73900.73,
        "state_name":"California",
        "lat":33.7977,
        "lng":-118.167,
        "Price to Income Ratio":13.4436321536,
        "Income Range":"50000-80000"
    },
    {
        "state":"CA",
        "city":"loomis",
        "Average Price":1509127.9399999999,
        "Average Income":102063.25,
        "state_name":"California",
        "lat":38.8093,
        "lng":-121.1955,
        "Price to Income Ratio":14.7862030653,
        "Income Range":"80000-110000"
    },
    {
        "state":"CA",
        "city":"los alamitos",
        "Average Price":1682153.0800000001,
        "Average Income":96732.0,
        "state_name":"California",
        "lat":33.7971,
        "lng":-118.0592,
        "Price to Income Ratio":17.3898304594,
        "Income Range":"80000-110000"
    },
    {
        "state":"CA",
        "city":"los alamos",
        "Average Price":3953600.0,
        "Average Income":87715.5,
        "state_name":"California",
        "lat":34.7419,
        "lng":-120.2746,
        "Price to Income Ratio":45.0729916605,
        "Income Range":"80000-110000"
    },
    {
        "state":"CA",
        "city":"los altos",
        "Average Price":4686964.0999999996,
        "Average Income":165306.8,
        "state_name":"California",
        "lat":37.3684,
        "lng":-122.0965,
        "Price to Income Ratio":28.3531234045,
        "Income Range":"170000+"
    },
    {
        "state":"CA",
        "city":"los angeles",
        "Average Price":2108990.5600000001,
        "Average Income":61724.56,
        "state_name":"California",
        "lat":34.1141,
        "lng":-118.4068,
        "Price to Income Ratio":34.1677698472,
        "Income Range":"50000-80000"
    },
    {
        "state":"CA",
        "city":"los banos",
        "Average Price":750732.5,
        "Average Income":54495.0,
        "state_name":"California",
        "lat":37.063,
        "lng":-120.8406,
        "Price to Income Ratio":13.7761721259,
        "Income Range":"50000-80000"
    },
    {
        "state":"CA",
        "city":"los gatos",
        "Average Price":2406550.1400000001,
        "Average Income":126043.0,
        "state_name":"California",
        "lat":37.2304,
        "lng":-121.9562,
        "Price to Income Ratio":19.0930883905,
        "Income Range":"170000+"
    },
    {
        "state":"CA",
        "city":"los olivos",
        "Average Price":3119833.3300000001,
        "Average Income":130078.0,
        "state_name":"California",
        "lat":34.664,
        "lng":-120.117,
        "Price to Income Ratio":23.9843273267,
        "Income Range":"170000+"
    },
    {
        "state":"CA",
        "city":"los osos",
        "Average Price":734124.49,
        "Average Income":74235.5,
        "state_name":"California",
        "lat":35.3065,
        "lng":-120.8242,
        "Price to Income Ratio":9.889129729,
        "Income Range":"50000-80000"
    },
    {
        "state":"CA",
        "city":"lost hills",
        "Average Price":933000.0,
        "Average Income":36199.0,
        "state_name":"California",
        "lat":35.6254,
        "lng":-119.6788,
        "Price to Income Ratio":25.7741926573,
        "Income Range":"20000-50000"
    },
    {
        "state":"CA",
        "city":"lucerne valley",
        "Average Price":158412.42,
        "Average Income":40260.0,
        "state_name":"California",
        "lat":34.4427,
        "lng":-116.9021,
        "Price to Income Ratio":3.9347347243,
        "Income Range":"20000-50000"
    },
    {
        "state":"CA",
        "city":"lynwood",
        "Average Price":727539.33,
        "Average Income":41161.4,
        "state_name":"California",
        "lat":33.924,
        "lng":-118.2016,
        "Price to Income Ratio":17.675281453,
        "Income Range":"20000-50000"
    },
    {
        "state":"CA",
        "city":"madera",
        "Average Price":507583.67,
        "Average Income":54237.86,
        "state_name":"California",
        "lat":36.963,
        "lng":-120.0778,
        "Price to Income Ratio":9.3584752422,
        "Income Range":"50000-80000"
    },
    {
        "state":"CA",
        "city":"magalia",
        "Average Price":177116.25,
        "Average Income":49279.0,
        "state_name":"California",
        "lat":39.8228,
        "lng":-121.6078,
        "Price to Income Ratio":3.5941526817,
        "Income Range":"20000-50000"
    },
    {
        "state":"CA",
        "city":"mammoth lakes",
        "Average Price":1092956.3600000001,
        "Average Income":75375.0,
        "state_name":"California",
        "lat":37.6273,
        "lng":-118.99,
        "Price to Income Ratio":14.5002502156,
        "Income Range":"50000-80000"
    },
    {
        "state":"CA",
        "city":"manhattan beach",
        "Average Price":5221462.4400000004,
        "Average Income":162495.25,
        "state_name":"California",
        "lat":33.8894,
        "lng":-118.3967,
        "Price to Income Ratio":32.1330158266,
        "Income Range":"170000+"
    },
    {
        "state":"CA",
        "city":"manteca",
        "Average Price":748675.37,
        "Average Income":59583.5,
        "state_name":"California",
        "lat":37.7927,
        "lng":-121.2264,
        "Price to Income Ratio":12.5651458877,
        "Income Range":"50000-80000"
    },
    {
        "state":"CA",
        "city":"manton",
        "Average Price":487930.0,
        "Average Income":51540.0,
        "state_name":"California",
        "lat":40.4202,
        "lng":-121.854,
        "Price to Income Ratio":9.46701591,
        "Income Range":"50000-80000"
    },
    {
        "state":"CA",
        "city":"marina",
        "Average Price":1033169.49,
        "Average Income":54805.0,
        "state_name":"California",
        "lat":36.681,
        "lng":-121.7892,
        "Price to Income Ratio":18.8517377976,
        "Income Range":"50000-80000"
    },
    {
        "state":"CA",
        "city":"marina del rey",
        "Average Price":2369752.2200000002,
        "Average Income":129091.0,
        "state_name":"California",
        "lat":33.9765,
        "lng":-118.4486,
        "Price to Income Ratio":18.3572225794,
        "Income Range":"170000+"
    },
    {
        "state":"CA",
        "city":"martinez",
        "Average Price":804909.52,
        "Average Income":81559.4,
        "state_name":"California",
        "lat":37.9985,
        "lng":-122.1161,
        "Price to Income Ratio":9.868997565,
        "Income Range":"80000-110000"
    },
    {
        "state":"CA",
        "city":"marysville",
        "Average Price":490091.41,
        "Average Income":52172.0,
        "state_name":"California",
        "lat":39.1518,
        "lng":-121.5835,
        "Price to Income Ratio":9.3937631296,
        "Income Range":"50000-80000"
    },
    {
        "state":"CA",
        "city":"mather",
        "Average Price":633128.4300000001,
        "Average Income":106418.0,
        "state_name":"California",
        "lat":38.5488,
        "lng":-121.2831,
        "Price to Income Ratio":5.9494486835,
        "Income Range":"80000-110000"
    },
    {
        "state":"CA",
        "city":"maywood",
        "Average Price":1202600.0,
        "Average Income":37726.67,
        "state_name":"California",
        "lat":33.9886,
        "lng":-118.1877,
        "Price to Income Ratio":31.8766538367,
        "Income Range":"20000-50000"
    },
    {
        "state":"CA",
        "city":"mcarthur",
        "Average Price":1609841.1799999999,
        "Average Income":62566.0,
        "state_name":"California",
        "lat":41.0414,
        "lng":-121.4068,
        "Price to Income Ratio":25.7302876962,
        "Income Range":"50000-80000"
    },
    {
        "state":"CA",
        "city":"mckinleyville",
        "Average Price":759404.17,
        "Average Income":51618.0,
        "state_name":"California",
        "lat":40.9488,
        "lng":-124.0857,
        "Price to Income Ratio":14.7120029835,
        "Income Range":"50000-80000"
    },
    {
        "state":"CA",
        "city":"meadow vista",
        "Average Price":954842.16,
        "Average Income":104362.5,
        "state_name":"California",
        "lat":39.0029,
        "lng":-121.0303,
        "Price to Income Ratio":9.1492840819,
        "Income Range":"80000-110000"
    },
    {
        "state":"CA",
        "city":"mendota",
        "Average Price":963428.5699999999,
        "Average Income":40404.0,
        "state_name":"California",
        "lat":36.7555,
        "lng":-120.3776,
        "Price to Income Ratio":23.8448809524,
        "Income Range":"20000-50000"
    },
    {
        "state":"CA",
        "city":"menifee",
        "Average Price":619263.8199999999,
        "Average Income":80746.5,
        "state_name":"California",
        "lat":33.6909,
        "lng":-117.1849,
        "Price to Income Ratio":7.6692342083,
        "Income Range":"80000-110000"
    },
    {
        "state":"CA",
        "city":"menlo park",
        "Average Price":4110300.8999999999,
        "Average Income":146571.5,
        "state_name":"California",
        "lat":37.4685,
        "lng":-122.1673,
        "Price to Income Ratio":28.0429749303,
        "Income Range":"170000+"
    },
    {
        "state":"CA",
        "city":"merced",
        "Average Price":597026.79,
        "Average Income":45038.82,
        "state_name":"California",
        "lat":37.3057,
        "lng":-120.4779,
        "Price to Income Ratio":13.2558266402,
        "Income Range":"20000-50000"
    },
    {
        "state":"CA",
        "city":"midway city",
        "Average Price":675180.0,
        "Average Income":74240.0,
        "state_name":"California",
        "lat":33.7452,
        "lng":-117.9849,
        "Price to Income Ratio":9.0945581897,
        "Income Range":"50000-80000"
    },
    {
        "state":"CA",
        "city":"mill valley",
        "Average Price":2515299.2999999998,
        "Average Income":108020.0,
        "state_name":"California",
        "lat":37.9086,
        "lng":-122.5421,
        "Price to Income Ratio":23.2854962044,
        "Income Range":"80000-110000"
    },
    {
        "state":"CA",
        "city":"millbrae",
        "Average Price":1902991.1399999999,
        "Average Income":107565.0,
        "state_name":"California",
        "lat":37.5994,
        "lng":-122.4023,
        "Price to Income Ratio":17.691545949,
        "Income Range":"80000-110000"
    },
    {
        "state":"CA",
        "city":"milpitas",
        "Average Price":1612419.8799999999,
        "Average Income":119131.6,
        "state_name":"California",
        "lat":37.4336,
        "lng":-121.8921,
        "Price to Income Ratio":13.5347790175,
        "Income Range":"170000+"
    },
    {
        "state":"CA",
        "city":"mission hills",
        "Average Price":812684.41,
        "Average Income":84635.0,
        "state_name":"California",
        "lat":34.6861,
        "lng":-120.4404,
        "Price to Income Ratio":9.6022261476,
        "Income Range":"80000-110000"
    },
    {
        "state":"CA",
        "city":"mission viejo",
        "Average Price":1107911.71,
        "Average Income":128766.0,
        "state_name":"California",
        "lat":33.6096,
        "lng":-117.6551,
        "Price to Income Ratio":8.6040702515,
        "Income Range":"170000+"
    },
    {
        "state":"CA",
        "city":"modesto",
        "Average Price":524511.01,
        "Average Income":58324.9,
        "state_name":"California",
        "lat":37.6375,
        "lng":-121.0028,
        "Price to Income Ratio":8.9929174332,
        "Income Range":"50000-80000"
    },
    {
        "state":"CA",
        "city":"monrovia",
        "Average Price":1083445.21,
        "Average Income":75942.25,
        "state_name":"California",
        "lat":34.165,
        "lng":-117.9921,
        "Price to Income Ratio":14.2666988402,
        "Income Range":"50000-80000"
    },
    {
        "state":"CA",
        "city":"montague",
        "Average Price":237908.09,
        "Average Income":51585.0,
        "state_name":"California",
        "lat":41.7275,
        "lng":-122.5302,
        "Price to Income Ratio":4.611962586,
        "Income Range":"50000-80000"
    },
    {
        "state":"CA",
        "city":"montclair",
        "Average Price":589342.08,
        "Average Income":57209.67,
        "state_name":"California",
        "lat":34.0715,
        "lng":-117.6981,
        "Price to Income Ratio":10.3014416968,
        "Income Range":"50000-80000"
    },
    {
        "state":"CA",
        "city":"monte rio",
        "Average Price":400745.0,
        "Average Income":51503.0,
        "state_name":"California",
        "lat":38.4684,
        "lng":-123.0148,
        "Price to Income Ratio":7.7810030484,
        "Income Range":"50000-80000"
    },
    {
        "state":"CA",
        "city":"montebello",
        "Average Price":854157.67,
        "Average Income":53451.67,
        "state_name":"California",
        "lat":34.0155,
        "lng":-118.1108,
        "Price to Income Ratio":15.9799996894,
        "Income Range":"50000-80000"
    },
    {
        "state":"CA",
        "city":"monterey",
        "Average Price":1831997.8700000001,
        "Average Income":59392.0,
        "state_name":"California",
        "lat":36.5919,
        "lng":-121.8808,
        "Price to Income Ratio":30.845869309,
        "Income Range":"50000-80000"
    },
    {
        "state":"CA",
        "city":"monterey park",
        "Average Price":1042806.1,
        "Average Income":75413.17,
        "state_name":"California",
        "lat":34.0497,
        "lng":-118.1326,
        "Price to Income Ratio":13.8279043302,
        "Income Range":"50000-80000"
    },
    {
        "state":"CA",
        "city":"moorpark",
        "Average Price":1675852.28,
        "Average Income":125805.67,
        "state_name":"California",
        "lat":34.2861,
        "lng":-118.8768,
        "Price to Income Ratio":13.3209598582,
        "Income Range":"170000+"
    },